City_ID,City,Lat,Lng,Max Temp,Humidity,Cloudiness,Wind Speed,Country,Date
0,port-aux-francais,-49.35,70.2167,46.87,99,100,19.17,TF,1743789577
1,st. john's,47.5649,-52.7093,30.27,92,100,16.11,CA,1743789578
2,hithadhoo,-0.6,73.0833,82.72,72,91,3.51,MV,1743789579
3,edinburgh of the seven seas,-37.0676,-12.3116,66.29,92,32,11.77,SH,1743789580
4,weno,7.4515,151.8468,77.88,91,100,11.41,FM,1743789582
5,lodja,-3.4833,23.4333,72.37,98,98,2.86,CD,1743789584
6,puerto baquerizo moreno,-0.9,-89.6,85.19,74,40,8.05,EC,1743789581
7,sandnessjoen,66.0217,12.6316,33.91,93,40,9.22,NO,1743789586
8,anadyr,64.75,177.4833,16.3,86,75,4.47,RU,1743789587
9,port elizabeth,-33.918,25.5701,70.09,90,75,14.97,ZA,1743789589
10,vitoria da conquista,-14.8661,-40.8394,85.87,32,34,10.16,BR,1743789590
11,blackmans bay,-43.0167,147.3167,44.73,78,100,4.0,AU,1743789591
12,changji,44.0167,87.3167,56.19,26,0,2.24,CN,1743789592
13,new kingman-butler,35.265,-114.0323,55.8,33,3,1.99,US,1743789593
14,luena,-11.7833,19.9167,66.02,94,100,0.67,AO,1743789594
15,waitangi,-43.9535,-176.5597,61.83,98,100,15.01,NZ,1743789595
16,tiksi,71.6872,128.8694,-5.58,98,100,6.67,RU,1743789597
17,kodinsk,58.6881,99.1844,40.73,90,100,10.22,RU,1743789598
18,kattivakkam,13.2167,80.3167,86.09,78,23,3.96,IN,1743789599
19,maitum,6.0392,124.4986,78.42,86,95,5.77,PH,1743789600
20,cidade velha,14.9167,-23.6167,77.47,57,75,18.41,CV,1743789601
21,rio grande,-32.035,-52.0986,65.93,45,31,19.98,BR,1743789589
22,avarua,-21.2078,-159.775,73.45,100,100,4.61,CK,1743789603
23,yellowknife,62.456,-114.3525,32.41,62,75,4.61,CA,1743789600
24,mccook,40.2019,-100.6257,48.25,87,100,13.8,US,1743789606
25,bethel,41.3712,-73.414,66.88,45,100,6.93,US,1743789607
26,aragarcas,-15.8975,-52.2508,93.85,55,20,3.44,BR,1743789511
27,haenam,34.5711,126.5989,48.88,87,100,7.78,KR,1743789610
28,sakata,38.9167,139.855,41.85,71,93,7.96,JP,1743789611
29,kirkland lake,48.1446,-80.0377,37.69,48,95,4.61,CA,1743789496
30,holualoa,19.6228,-155.9522,71.87,73,100,5.48,US,1743789613
31,igarka,67.4667,86.5833,0.77,85,7,10.98,RU,1743789616
32,kailua-kona,19.6406,-155.9956,75.6,75,100,5.66,US,1743789617
33,adamstown,-25.066,-130.1015,74.84,72,92,15.46,PN,1743789618
34,perg,48.25,14.6333,57.15,58,0,4.34,AT,1743789619
35,papatowai,-46.5619,169.4708,51.17,77,86,13.49,NZ,1743789620
36,oroqen zizhiqi,50.5667,123.7167,31.03,98,100,3.42,CN,1743789621
37,rongelap,11.1635,166.8941,80.01,80,9,18.5,MH,1743789622
38,grytviken,-54.2811,-36.5092,31.69,60,86,9.13,GS,1743789623
39,ilulissat,69.2167,-51.1,21.22,86,75,4.61,GL,1743789625
40,figuig (centre),32.1089,-1.2286,77.88,13,0,14.58,MA,1743789626
41,muynoq,43.7683,59.0214,61.47,50,52,3.62,UZ,1743789627
42,olonkinbyen,70.9221,-8.7187,30.56,86,100,21.43,SJ,1743789628
43,atafu village,-8.5421,-172.5159,82.54,73,97,4.63,TK,1743789629
44,subaykhan,34.8544,40.6083,73.02,31,27,8.12,SY,1743789630
45,ketchikan,55.3422,-131.6461,50.99,72,100,5.01,US,1743789608
46,aasiaat,68.7098,-52.8699,18.21,89,48,7.78,GL,1743789633
47,palikir - national government center,6.9248,158.1611,78.94,87,98,3.0,FM,1743789634
48,live oak,36.9836,-121.9805,64.38,66,2,4.0,US,1743789635
49,saint-philippe,-21.3585,55.7679,78.21,79,100,7.9,RE,1743789637
50,constantia,44.1833,28.65,52.7,84,100,5.35,RO,1743789638
51,labrador city,52.9463,-66.9114,21.11,73,100,5.75,CA,1743789639
52,maxixe,-23.8597,35.3472,75.02,83,40,7.0,MZ,1743789640
53,novaya igirma,57.1334,103.9112,37.9,71,100,11.34,RU,1743789641
54,usinsk,65.9939,57.5281,23.97,89,100,11.14,RU,1743789642
55,kone,-21.0595,164.8658,74.52,90,100,2.98,NC,1743789643
56,the pas,53.8251,-101.2541,21.22,58,0,20.71,CA,1743789629
57,gobo,33.8833,135.15,45.66,66,34,7.92,JP,1743789646
58,hermanus,-34.4187,19.2345,69.8,81,0,12.44,ZA,1743789647
59,guerrero negro,27.9769,-114.0611,60.94,53,2,16.75,MX,1743789648
60,albany,42.6001,-73.9662,58.59,41,93,5.01,US,1743789470
61,puerto ayora,-0.7393,-90.3518,81.99,76,80,4.25,EC,1743789650
62,afaahiti,-17.75,-149.2833,79.92,79,75,15.23,PF,1743789651
63,bilibino,68.0546,166.4372,10.15,96,100,2.26,RU,1743789652
64,port alfred,-33.5906,26.891,74.03,85,46,21.16,ZA,1743789654
65,kununurra,-15.7667,128.7333,78.78,83,100,0.0,AU,1743789655
66,punta arenas,-53.15,-70.9167,41.11,70,0,4.61,CL,1743789606
67,longboat key,27.4125,-82.659,90.12,52,40,10.36,US,1743789580
68,ushuaia,-54.8,-68.3,42.46,70,0,3.44,AR,1743789435
69,remire-montjoly,4.9167,-52.2667,75.24,100,75,0.0,GF,1743789659
70,lompoc,34.6391,-120.4579,67.14,59,0,16.11,US,1743789523
71,san antonio de pale,-1.4014,5.6325,82.22,80,88,10.02,GQ,1743789662
72,palm valley,30.1775,-81.3876,87.12,71,42,13.89,US,1743789663
73,ribeira grande,38.5167,-28.7,54.0,71,75,28.77,PT,1743789664
74,saurimo,-9.6608,20.3916,69.12,93,86,2.15,AO,1743789665
75,khor,47.8861,134.9464,28.17,99,34,1.03,RU,1743789666
76,georgetown,5.4112,100.3354,78.75,79,20,3.44,MY,1743789668
77,nianzishan,47.5167,122.8833,41.11,62,98,5.12,CN,1743789669
78,khovd,48.0056,91.6419,40.68,27,100,9.57,MN,1743789671
79,cedeira,43.6797,-8.0209,56.97,97,100,3.13,ES,1743789672
80,pisco,-13.7,-76.2167,77.05,65,0,8.05,PE,1743789673
81,bredasdorp,-34.5322,20.0403,67.96,92,13,13.0,ZA,1743789674
82,invercargill,-46.4,168.35,53.02,77,77,8.99,NZ,1743789643
83,vanimo,-2.6741,141.3028,77.54,89,76,2.71,PG,1743789679
84,iskateley,67.6803,53.1512,26.13,97,100,11.41,RU,1743789680
85,khairagarh,26.95,77.8167,81.73,11,0,6.13,IN,1743789681
86,ginir,7.1333,40.7,61.97,73,76,1.23,ET,1743789682
87,arraial do cabo,-22.9661,-42.0278,82.36,78,75,12.66,BR,1743789683
88,puerto natales,-51.7236,-72.4875,43.25,65,75,4.61,CL,1743789685
89,fort bragg,35.139,-79.006,86.68,61,75,11.5,US,1743789664
90,obihiro,42.9172,143.2044,33.1,76,82,6.98,JP,1743789513
91,harper,4.375,-7.7169,82.35,77,38,7.83,LR,1743789688
92,margaret river,-33.95,115.0667,59.58,84,100,13.04,AU,1743789690
93,minas de marcona,-15.2119,-75.1103,73.38,56,13,15.68,PE,1743789691
94,sechura,-5.5569,-80.8222,80.47,59,98,7.31,PE,1743789692
95,utrik,11.2278,169.8474,79.92,80,44,20.09,MH,1743789693
96,nemuro,43.3236,145.575,35.01,68,74,22.24,JP,1743789695
97,thompson,55.7435,-97.8558,15.96,73,100,16.11,CA,1743789536
98,nagireddipalli,14.2667,79.1,81.01,68,42,2.19,IN,1743789697
99,warrnambool,-38.3833,142.4833,53.28,60,58,14.18,AU,1743789698
100,college,64.8569,-147.8028,38.08,86,75,6.91,US,1743789699
101,holmsund,63.706,20.3641,33.75,69,0,8.01,SE,1743789702
102,sol'tsy,58.1239,30.3238,39.52,60,73,9.46,RU,1743789704
103,carnarvon,-24.8667,113.6333,76.42,67,0,8.3,AU,1743789705
104,polyarnyy,69.1989,33.4478,24.87,67,100,24.45,RU,1743789706
105,saipan,15.1355,145.701,81.54,75,18,12.03,MP,1743789708
106,enewetak,11.3474,162.3373,80.13,81,29,17.45,MH,1743789709
107,petropavlovsk-kamchatsky,53.0452,158.6483,28.99,69,75,8.95,RU,1743789710
108,dembi dolo,8.5333,34.8,62.49,84,98,4.09,ET,1743789711
109,chonchi,-42.6128,-73.8092,61.93,36,100,2.64,CL,1743789713
110,alofi,-19.0595,-169.9187,75.09,94,75,3.44,NU,1743789714
111,nova sintra,14.8667,-24.7167,69.67,83,8,23.4,CV,1743789715
112,santa ana,33.7456,-117.8678,66.24,59,20,3.0,US,1743789575
113,qaqortoq,60.7167,-46.0333,30.31,83,100,10.11,GL,1743789717
114,dakhla,23.6848,-15.958,71.62,73,40,11.5,EH,1743789719
115,zavodskoy,43.4597,132.2922,38.79,87,100,8.95,RU,1743789720
116,mahdia,35.5047,11.0622,62.01,75,51,15.9,TN,1743789721
117,hawaiian paradise park,19.5933,-154.9731,72.9,93,91,3.94,US,1743789722
118,tura,25.5198,90.2201,80.69,12,94,5.37,IN,1743789724
119,boa vista,2.8197,-60.6733,80.58,74,75,9.22,BR,1743789725
120,ancud,-41.8697,-73.8203,59.5,46,100,7.34,CL,1743789677
121,revda,56.801,59.9303,34.43,81,99,12.97,RU,1743789729
122,sitka,57.0531,-135.33,44.04,84,100,5.99,US,1743789730
123,tazovsky,67.4667,78.7,-11.36,98,7,6.29,RU,1743789731
124,pitimbu,-7.4706,-34.8086,86.14,72,22,10.11,BR,1743789732
125,pozanti,37.4278,34.8717,49.53,78,100,1.12,TR,1743789733
126,gadzhiyevo,69.2551,33.3362,24.94,67,100,25.19,RU,1743789735
127,kingston,17.997,-76.7936,87.17,70,20,32.21,JM,1743789441
128,tofol,5.3248,163.0078,82.02,77,99,19.33,FM,1743789737
129,greymouth,-42.4667,171.2,58.1,89,98,10.0,NZ,1743789738
130,rio bueno,-40.3167,-72.9667,67.82,28,99,3.4,CL,1743789739
131,offenburg,48.4833,7.9333,69.78,33,0,9.22,DE,1743789741
132,talnakh,69.4865,88.3972,-7.82,79,3,3.02,RU,1743789742
133,severo-yeniseyskiy,60.3725,93.0408,34.3,100,100,10.6,RU,1743789744
134,hammerfest,70.6634,23.6821,25.25,63,75,14.97,NO,1743789746
135,iqaluit,63.7506,-68.5145,-0.31,59,75,20.71,CA,1743789747
136,port mathurin,-19.6833,63.4167,80.33,78,18,15.39,MU,1743789748
137,jamestown,42.097,-79.2353,57.42,48,95,4.0,US,1743789520
138,nagqu,31.5,92.0,29.28,11,90,3.96,CN,1743789750
139,kumi,36.1136,128.336,45.95,74,88,2.86,KR,1743789751
140,thunder bay,48.4001,-89.3168,39.18,75,75,4.61,CA,1743789581
141,kodiak,57.79,-152.4072,40.86,98,100,19.22,US,1743789754
142,urangan,-25.3,152.9,73.04,87,100,12.17,AU,1743789755
143,mount pearl,47.5166,-52.7813,29.44,92,100,16.11,CA,1743789758
144,zhelezinka,53.54,75.3072,37.78,87,100,23.31,KZ,1743789759
145,northam,51.0333,-4.2167,59.99,85,90,14.45,GB,1743789760
146,natchitoches,31.7668,-93.1335,85.98,58,100,18.41,US,1743789761
147,howrah,22.5892,88.3103,84.2,70,40,9.22,IN,1743789762
148,cooma,-36.2333,149.1333,46.35,71,97,5.79,AU,1743789763
149,jam sahib,26.2958,68.6292,88.03,9,0,2.26,PK,1743789764
150,amga,60.8953,131.9608,-8.18,100,50,0.78,RU,1743789766
151,ardakan,32.31,54.0175,69.75,47,99,5.46,IR,1743789767
152,sinabang,2.4803,96.3801,79.48,84,100,3.65,ID,1743789768
153,marat,25.0701,45.4615,87.94,11,100,14.5,SA,1743789770
154,semera,11.501,41.201,83.64,42,64,14.83,ET,1743789771
155,mar del plata,-38.0023,-57.5575,56.95,64,65,11.99,AR,1743789604
156,huangnihe,43.5583,128.0239,38.91,68,97,3.91,CN,1743789774
157,cabo san lucas,22.8909,-109.9124,70.75,33,0,15.01,MX,1743789480
158,sabang,5.8933,95.3214,83.44,72,88,12.97,ID,1743789776
159,whitehorse,60.7161,-135.0538,37.02,64,100,12.66,CA,1743789778
160,lesogorsk,56.0458,99.5136,36.5,80,100,5.19,RU,1743789779
161,badger,64.8,-147.5333,35.47,75,75,0.0,US,1743789780
162,smithers,54.7804,-127.1743,35.92,69,75,3.04,CA,1743789781
163,tabou,4.423,-7.3528,81.75,79,31,7.85,CI,1743789782
164,diapaga,12.0708,1.7889,97.93,5,100,6.71,BF,1743789783
165,alotau,-10.3069,150.4462,77.5,90,97,2.39,PG,1743789785
166,west island,-12.1568,96.8225,80.58,89,40,8.05,CC,1743789786
167,raymondville,26.4815,-97.7831,87.98,62,25,22.88,US,1743789787
168,huedin,46.8667,23.05,52.61,64,56,3.69,RO,1743789788
169,tumaco,1.7986,-78.8156,84.76,67,79,6.51,CO,1743789789
170,cole harbour,44.6724,-63.4751,47.59,76,96,18.41,CA,1743789790
171,lebu,-37.6167,-73.65,64.8,47,97,4.63,CL,1743789792
172,longyearbyen,78.2186,15.6401,4.84,72,20,5.75,SJ,1743789793
173,progreso,21.2833,-89.6667,95.49,38,2,16.8,MX,1743789502
174,east london,-33.0153,27.9116,73.22,85,99,16.22,ZA,1743789795
175,porto novo,6.4965,2.6036,85.82,76,28,7.65,BJ,1743789796
176,geraldton,-28.7667,114.6,72.01,78,75,6.91,AU,1743789797
177,troitsko-pechorsk,62.7084,56.1964,31.62,98,100,9.84,RU,1743789799
178,isafjordur,66.0755,-23.124,46.44,53,0,6.91,IS,1743789800
179,khandyga,62.6667,135.6,-10.39,100,67,1.92,RU,1743789801
180,naze,28.3667,129.4833,50.92,67,100,4.47,JP,1743789802
181,coahuayana de hidalgo,18.7,-103.6583,88.54,28,1,7.2,MX,1743789803
182,brookings,44.3114,-96.7984,39.06,97,100,5.75,US,1743789804
183,san patricio,28.017,-97.5169,87.75,71,68,21.85,US,1743789805
184,sebastopol,44.6,33.5333,50.0,65,40,5.01,UA,1743789807
185,yigo village,13.5361,144.8886,78.12,87,20,8.05,GU,1743789808
186,bima,-8.4667,118.7167,71.92,89,19,2.95,ID,1743789809
187,inhambane,-23.865,35.3833,75.18,83,40,7.0,MZ,1743789810
188,stanley,54.868,-1.6985,45.52,80,40,12.66,GB,1743789811
189,mokhsogollokh,61.4681,128.9203,-7.58,100,41,1.68,RU,1743789812
190,new norfolk,-42.7826,147.0587,45.91,82,92,3.4,AU,1743789813
191,aban,56.67,96.06,47.44,48,100,13.4,RU,1743789815
192,masterton,-40.9597,175.6575,61.38,76,18,9.95,NZ,1743789816
193,laungowal,30.2167,75.6833,74.86,20,0,7.56,IN,1743789817
194,udachny,66.4167,112.4,-0.31,100,83,4.92,RU,1743789813
195,praia da vitoria,38.7333,-27.0667,62.85,72,75,15.17,PT,1743789819
196,puerto cabezas,14.0351,-83.3888,85.96,70,20,11.5,NI,1743789820
197,nar'yan-mar,67.6713,53.087,26.2,97,100,11.61,RU,1743789822
198,klaksvik,62.2266,-6.589,42.87,71,76,14.99,FO,1743789823
199,nelson bay,-32.7167,152.15,64.99,84,3,5.99,AU,1743789824
200,zabid,14.1951,43.3152,85.21,54,4,3.31,YE,1743789825
201,dudinka,69.4058,86.1778,-15.32,100,15,5.91,RU,1743789826
202,ghat,24.9647,10.1728,85.12,5,35,9.98,LY,1743789827
203,lihue,21.9789,-159.3672,72.99,73,100,13.8,US,1743789829
204,kapiri mposhi,-13.9652,28.6809,62.55,94,88,4.81,ZM,1743789831
205,berea,41.3662,-81.8543,56.75,64,75,13.8,US,1743789832
206,bokoro,12.3807,17.0568,96.22,12,11,10.09,TD,1743789834
207,selfoss,63.9331,-20.9971,44.28,63,99,9.53,IS,1743789835
208,moroni,-11.7022,43.2551,79.45,80,72,3.94,KM,1743789836
209,la'ie,21.6477,-157.9253,74.59,92,100,7.0,US,1743789838
210,mili,6.0815,171.735,81.12,80,95,19.66,MH,1743789839
211,rifle,39.5347,-107.7831,47.37,54,0,0.0,US,1743789840
212,canto do buriti,-8.11,-42.9444,99.64,22,25,4.36,BR,1743789842
213,kavaratti,10.5669,72.642,84.25,72,39,5.06,IN,1743789843
214,itoman,26.1247,127.6694,63.09,67,99,6.91,JP,1743789846
215,bardai,11.65,7.2333,88.3,6,31,8.84,NG,1743789847
216,sterling,39.0062,-77.4286,70.57,73,100,4.61,US,1743789848
217,qarazhal,48.0078,70.7903,40.19,73,81,11.14,KZ,1743789849
218,gorontalo,0.5412,123.0595,74.03,98,100,3.06,ID,1743789850
219,wailua homesteads,22.0669,-159.378,72.39,87,100,13.8,US,1743789851
220,wotho,10.1657,166.0102,80.64,80,7,18.34,MH,1743789853
221,penaranda de bracamonte,40.9011,-5.2003,46.78,84,100,8.95,ES,1743789854
222,tionk essil,12.7856,-16.5217,84.36,35,40,17.92,SN,1743789855
223,howard springs,-12.497,131.047,78.71,100,100,2.35,AU,1743789856
224,trujillo,-8.116,-79.03,67.96,88,70,11.5,PE,1743789821
225,tari,-11.1105,14.3559,69.28,94,83,3.31,AO,1743789858
226,kirksville,40.1948,-92.5833,44.55,85,100,8.05,US,1743789860
227,kimbe,-5.5502,150.1429,75.69,93,96,3.29,PG,1743789861
228,pervomayskoye,43.919,46.7102,54.66,65,17,7.92,RU,1743789862
229,arno,60.1167,18.6333,44.13,53,68,17.25,SE,1743789863
230,lapinlahti,65.5833,30.5667,22.82,74,100,10.0,RU,1743789864
231,korla,41.7597,86.1469,53.82,27,0,6.76,CN,1743789865
232,winnemucca,40.973,-117.7357,46.45,36,20,9.22,US,1743789866
233,baihe,22.15,107.2333,68.45,83,48,2.06,CN,1743789868
234,klyuchi,52.2667,79.1667,56.48,72,99,32.5,RU,1743789869
235,auki,-8.7676,160.7034,77.02,88,86,2.42,SB,1743789870
236,vernon,50.2581,-119.2691,49.75,43,24,4.61,CA,1743789724
237,santa elena de uairen,4.6167,-61.1333,69.84,85,99,4.09,VE,1743789872
238,zaraza,9.3503,-65.3245,89.35,43,96,3.18,VE,1743789662
239,ulladulla,-35.35,150.4667,57.94,66,89,7.25,AU,1743789874
240,tyukalinsk,55.8732,72.1967,29.95,73,83,16.33,RU,1743789875
241,sao joao da barra,-21.6403,-41.0511,77.09,85,48,11.45,BR,1743789877
242,mount isa,-20.7333,139.5,73.17,68,75,8.05,AU,1743789878
243,bridgewater,44.3835,-64.5155,56.1,60,86,5.99,CA,1743789779
244,arica,-18.475,-70.3042,71.83,68,0,12.66,CL,1743789587
245,zhaotong,27.3167,103.7167,48.0,85,94,6.04,CN,1743789881
246,qurayyat,31.3318,37.3428,69.98,28,0,16.11,SA,1743789882
247,sakaiminato,35.55,133.2333,37.38,100,20,3.44,JP,1743789883
248,el granada,37.5027,-122.4694,64.18,61,0,1.01,US,1743789885
249,wynyard,-41.0,145.7167,44.19,81,52,3.0,AU,1743789886
250,hamilton,39.1834,-84.5333,53.89,95,75,11.5,US,1743789888
251,happy valley-goose bay,53.3168,-60.3315,26.91,46,75,11.5,CA,1743789889
252,pariaman,-0.619,100.12,75.25,92,100,3.33,ID,1743789890
253,brak,27.5496,14.2714,80.55,16,0,11.05,LY,1743789747
254,vorkuta,67.5,64.0,0.36,96,100,3.22,RU,1743789893
255,savanna-la-mar,18.219,-78.1332,82.92,64,29,5.79,JM,1743789894
256,magog,45.2668,-72.1491,40.82,60,99,12.66,CA,1743789895
257,baardheere,2.3446,42.2764,88.84,52,71,18.52,SO,1743789896
258,oriximina,-1.7656,-55.8661,85.93,66,89,2.77,BR,1743789897
259,port augusta,-32.5,137.7667,53.64,66,0,8.3,AU,1743789898
260,axim,4.8699,-2.2405,81.75,82,27,9.01,GH,1743789899
261,muisne,0.6,-80.0333,83.5,72,50,7.83,EC,1743789901
262,puerto deseado,-47.7503,-65.8938,53.67,42,63,23.35,AR,1743789902
263,saint-francois,46.4154,3.9054,65.64,48,0,3.44,FR,1743789903
264,la passe,45.5549,-0.8967,63.93,73,100,8.93,FR,1743789904
265,pogoanele,44.9167,27.0,53.44,73,96,0.89,RO,1743789905
266,mutuali,-14.8706,37.0044,67.71,90,82,3.4,MZ,1743789906
267,asau,46.4333,26.4,50.56,68,46,3.98,RO,1743789908
268,turriff,57.5384,-2.4593,45.81,76,60,8.93,GB,1743789909
269,tromso,69.6496,18.957,26.62,63,40,4.61,NO,1743789910
270,ust-nera,64.5667,143.2,-7.85,96,38,1.9,RU,1743789911
271,benjamin constant,-4.3831,-70.0311,75.33,94,75,4.61,BR,1743789913
272,ellsworth,44.5434,-68.4195,53.26,51,75,13.0,US,1743789742
273,lagoa,39.05,-27.9833,52.77,71,100,28.83,PT,1743789915
274,makinsk,52.6292,70.4169,32.79,83,72,11.92,KZ,1743789916
275,omdurman,15.6445,32.4777,95.07,9,7,17.96,SD,1743789724
276,hwange,-18.3693,26.5019,76.59,55,68,3.89,ZW,1743789919
277,yamethin,20.4333,96.15,80.49,30,10,6.44,MM,1743789920
278,mbandaka,0.0487,18.2603,79.93,70,85,3.67,CD,1743789921
279,flin flon,54.7682,-101.865,19.24,53,20,12.66,CA,1743789922
280,hobyo,5.3505,48.5268,83.01,68,18,13.58,SO,1743789923
281,zouerate,22.7187,-12.4521,84.33,16,50,10.38,MR,1743789924
282,palmer,42.1584,-72.3287,66.31,29,75,17.27,US,1743789926
283,krasnohrad,49.3814,35.4402,54.93,55,1,7.47,UA,1743789927
284,gaiman,-43.2897,-65.4929,59.2,14,0,17.29,AR,1743789928
285,uturoa,-16.7333,-151.4333,82.53,77,100,14.67,PF,1743789929
286,dharapuram,10.7333,77.5167,81.55,68,96,3.02,IN,1743789930
287,macia,-25.0269,33.0989,70.79,80,50,5.59,MZ,1743789932
288,jumla,29.2747,82.1838,40.42,41,31,5.64,NP,1743789786
289,ontario,34.0633,-117.6509,65.48,48,20,11.01,US,1743789934
290,san luis de la loma,17.2706,-100.8939,85.91,42,2,7.9,MX,1743789935
291,atasu,48.6814,71.6433,39.61,73,98,13.13,KZ,1743789936
292,murzuq,25.9155,13.9184,80.24,7,0,11.7,LY,1743789938
293,hauterive,46.0901,3.4459,66.34,48,89,2.39,FR,1743789939
294,narvik,68.4384,17.4272,27.81,92,62,2.48,NO,1743789940
295,horta,38.5333,-28.6333,53.24,79,75,28.77,PT,1743789786
296,berbera,10.4396,45.0143,80.24,82,6,5.3,SO,1743789942
297,mandalay,21.9747,96.0836,88.02,19,52,4.94,MM,1743789943
298,port lincoln,-34.7333,135.8667,59.18,71,69,5.84,AU,1743789945
299,bubaque,11.2833,-15.8333,75.2,73,47,17.74,GW,1743789947
300,guaruja,-23.9931,-46.2564,80.46,31,75,5.75,BR,1743789886
301,caninde,-4.3589,-39.3117,86.02,55,77,7.63,BR,1743789949
302,richards bay,-28.783,32.0377,69.62,92,100,7.92,ZA,1743789950
303,floresti,47.8933,28.3014,56.52,59,10,3.18,MD,1743789951
304,akureyri,65.6835,-18.0878,49.93,34,0,13.8,IS,1743789952
305,hard bargain,26.3167,-77.5667,77.7,79,0,16.89,BS,1743789953
306,morozovsk,48.3539,41.8261,55.94,73,10,9.44,RU,1743789955
307,terrace,54.5163,-128.6035,44.51,65,75,2.3,CA,1743789726
308,fale old settlement,-9.3852,-171.2468,83.28,72,100,5.41,TK,1743789957
309,almenara,-16.1836,-40.6944,92.68,32,53,3.04,BR,1743789958
310,fort mcmurray,56.7268,-111.381,27.99,50,0,1.14,CA,1743789959
311,belyy yar,53.6039,91.3903,44.49,42,0,4.47,RU,1743789960
312,george town,5.4112,100.3354,78.75,79,20,3.44,MY,1743789668
313,torghay,49.6339,63.4981,46.26,52,4,6.53,KZ,1743789963
314,sorong,-0.8833,131.25,79.47,83,100,7.02,ID,1743789875
315,haiku-pauwela,20.9219,-156.3051,74.21,71,0,8.99,US,1743789965
316,taoudenni,22.6783,-3.9836,100.36,10,14,14.47,ML,1743789966
317,ca mau,9.1769,105.15,78.26,83,59,5.73,VN,1743789968
318,plastun,44.7561,136.2939,33.8,87,5,4.25,RU,1743789970
319,belozersk,60.0326,37.7957,32.5,85,100,14.32,RU,1743789971
320,lib,8.3122,167.3766,80.91,75,100,15.32,MH,1743789972
321,san fernando de apure,7.8878,-67.4724,93.22,35,99,8.59,VE,1743789974
322,dunedin,-45.8742,170.5036,53.98,78,71,12.15,NZ,1743789975
323,ihtiman,42.4333,23.8167,51.17,72,87,1.99,BG,1743789976
324,yaren,-0.5472,166.916,81.93,75,18,13.87,NR,1743789977
325,lagos,6.5833,3.75,82.44,81,33,7.78,NG,1743789978
326,okhotsk,59.3833,143.3,18.52,96,100,3.04,RU,1743789979
327,iskushuban,10.2837,50.23,76.01,77,1,10.29,SO,1743789981
328,saint-joseph,-21.3667,55.6167,77.38,79,100,7.52,RE,1743789982
329,morinville,53.8001,-113.652,37.47,49,40,9.22,CA,1743789983
330,smederevo,44.6628,20.93,56.14,80,48,3.13,RS,1743789984
331,uglegorsk,49.0833,142.0333,28.87,90,78,3.44,RU,1743789986
332,labytnangi,66.6572,66.4183,-2.92,100,60,3.36,RU,1743789987
333,lamu,-2.2717,40.902,81.18,81,100,10.13,KE,1743789988
334,glace bay,46.1969,-59.957,36.09,94,100,14.97,CA,1743789989
335,hidrolandia,-4.4081,-40.4378,78.35,88,94,4.74,BR,1743789990
336,puerto aysen,-45.4,-72.7,56.05,65,99,1.97,CL,1743789820
337,santana,-0.0583,-51.1817,82.58,78,75,9.22,BR,1743789899
338,alice springs,-23.7,133.8833,56.75,82,1,1.14,AU,1743789995
339,tobelo,1.7284,128.0095,78.66,85,99,4.52,ID,1743789996
340,yuzhno-kurilsk,44.0306,145.8556,32.85,69,100,25.48,RU,1743789998
341,tarauaca,-8.1614,-70.7656,85.96,63,99,4.45,BR,1743790000
342,zheleznogorsk,52.331,35.3711,53.37,66,74,8.61,RU,1743790001
343,tovuz,40.9922,45.6289,58.95,55,13,3.62,AZ,1743790002
344,grootfontein,-19.5667,18.1167,67.57,94,100,4.61,NA,1743789946
345,lerwick,60.1545,-1.1494,42.6,69,100,16.87,GB,1743790005
346,vilyuchinsk,52.9306,158.4028,30.47,89,100,12.68,RU,1743790006
347,ta`u,-14.2336,-169.5144,82.38,72,18,3.38,AS,1743790008
348,vryburg,-26.9566,24.7284,63.0,92,100,8.88,ZA,1743790009
349,tobruk,32.0836,23.9764,61.52,73,7,8.3,LY,1743790010
350,vadso,70.0744,29.7487,17.76,79,40,24.16,NO,1743790011
351,aqaba,29.5267,35.0078,72.84,38,0,13.73,JO,1743790012
352,pingxiang,27.6167,113.85,58.37,89,100,1.16,CN,1743790013
353,colonia,50.9333,6.95,70.45,35,0,8.05,DE,1743790014
354,luderitz,-26.6481,15.1594,65.68,83,4,9.26,NA,1743790015
355,keflavik,64.0049,-22.5624,46.83,71,75,24.16,IS,1743790017
356,kavieng,-2.5744,150.7967,81.23,75,83,5.66,PG,1743790018
357,idrinskoye,54.3708,92.1358,40.89,71,86,5.95,RU,1743790019
358,puerto colombia,10.9878,-74.9547,89.69,66,100,17.52,CO,1743790020
359,ola,59.5833,151.2833,23.14,91,98,3.42,RU,1743790021
360,turpan,42.9333,89.1667,60.78,18,0,1.3,CN,1743790022
361,markovo,57.3206,107.0881,34.72,94,100,7.2,RU,1743790023
362,grand baie,-20.0182,57.5802,76.44,86,15,12.28,MU,1743790025
363,antonio enes,-16.2325,39.9086,79.74,75,78,7.9,MZ,1743790026
364,xiaoweizhai,26.1903,107.5125,56.19,93,100,3.56,CN,1743790027
365,crane,31.3974,-102.3501,55.18,78,99,18.7,US,1743790029
366,petauke,-14.2426,31.3253,64.17,88,93,6.58,ZM,1743790030
367,chudniv,50.052,28.1175,52.93,60,67,6.71,UA,1743790031
368,bayganin,48.6947,55.8742,47.43,46,0,3.49,KZ,1743790032
369,mezhdurechenskiy,59.6,65.9333,20.88,95,92,3.09,RU,1743790033
370,noshiro,40.2039,140.0242,41.49,74,84,8.34,JP,1743790034
371,soro,21.2881,86.6858,78.42,73,88,5.86,IN,1743789785
372,kawerau,-38.1,176.7,61.11,100,57,2.73,NZ,1743790037
373,satkania,22.0796,92.0572,71.28,93,53,4.99,BD,1743790038
374,ocotal,13.6321,-86.4752,88.72,36,22,8.28,NI,1743789747
375,ceeldheer,3.8488,47.1806,82.65,65,6,16.98,SO,1743790040
376,urengoy,65.9667,78.3667,-2.58,95,15,8.97,RU,1743790042
377,tommot,58.9564,126.2925,2.7,99,89,1.81,RU,1743790044
378,lata,40.1629,-8.3327,56.48,84,99,12.57,PT,1743790045
379,zilair,52.2332,57.4392,35.02,79,33,5.73,RU,1743790046
380,san pedro pochutla,15.7333,-96.4667,92.71,23,2,9.51,MX,1743790047
381,queenstown,-31.8976,26.8753,59.76,92,82,2.91,ZA,1743790048
382,timimoun,29.2639,0.231,89.71,15,17,10.4,DZ,1743790049
383,hadibu,12.65,54.0333,79.88,71,7,7.38,YE,1743790050
384,suva,-18.1416,178.4415,72.88,100,40,4.61,FJ,1743790052
385,okap,19.7578,-72.2042,80.31,72,0,27.58,HT,1743789785
386,katabu,-4.9333,122.5167,73.58,96,100,1.21,ID,1743790054
387,toliara,-23.35,43.6667,77.02,64,31,17.6,MG,1743789803
388,akrehamn,59.2667,5.1833,44.85,81,0,13.8,NO,1743790056
389,fisterra,42.9049,-9.2629,58.96,85,94,15.39,ES,1743790058
390,hargeysa,9.56,44.065,74.66,58,30,8.25,SO,1743790059
391,sur,22.5667,59.5289,83.88,29,0,10.22,OM,1743790060
392,bocanda,7.0626,-4.4995,86.05,62,58,3.6,CI,1743790061
393,pauini,-7.7136,-66.9764,83.62,71,98,1.34,BR,1743790063
394,babolsar,36.7025,52.6576,58.84,76,100,3.06,IR,1743790064
395,altinekin,38.3078,32.8686,46.51,84,86,4.92,TR,1743790066
396,unye,11.4502,13.962,88.16,12,36,9.98,NG,1743790067
397,isangel,-19.55,169.2667,78.08,88,80,5.84,VU,1743790068
398,hilo,19.7297,-155.09,73.51,74,40,5.75,US,1743790069
399,cam ranh,11.9214,109.1591,76.96,78,75,1.14,VN,1743790070
400,leava,-14.3,-178.1667,83.25,72,52,3.53,WF,1743790072
401,yeppoon,-23.1333,150.7333,74.82,87,100,5.37,AU,1743790073
402,argo,37.6333,22.7333,56.16,82,86,3.15,GR,1743790075
403,sao miguel do iguacu,-25.3481,-54.2378,83.82,41,4,9.37,BR,1743789932
404,newman,37.3138,-121.0208,64.04,46,0,8.01,US,1743789984
405,gobabis,-22.45,18.9667,65.03,89,100,13.31,NA,1743790078
406,kapit,2.0167,112.9333,74.12,98,100,1.83,MY,1743790079
407,nikol'sk,53.7189,46.0712,49.87,69,82,14.07,RU,1743790080
408,ugoofaaru,5.6667,73.0,83.89,71,86,4.36,MV,1743790082
409,inari,68.906,27.0288,20.25,79,75,11.41,FI,1743790083
410,gisborne,-38.6533,178.0042,64.09,89,66,10.51,NZ,1743790084
411,bouna,9.2667,-3.0,99.66,21,42,5.19,CI,1743790086
412,hasaki,35.7333,140.8333,51.3,56,99,10.4,JP,1743790087
413,kibara,-2.15,33.45,73.74,72,88,1.97,TZ,1743790089
414,mitu,1.1983,-70.1733,79.54,84,100,2.15,CO,1743790090
415,codrington,-38.2667,141.9667,53.02,57,54,13.58,AU,1743790091
416,likiep,9.8251,169.3107,80.69,79,78,20.22,MH,1743790092
417,plesetsk,62.708,40.2916,25.05,87,100,15.21,RU,1743790093
418,vylkove,45.4021,29.586,51.48,90,100,4.97,UA,1743790094
419,al ghayzah,16.2079,52.176,78.44,74,1,9.22,YE,1743790098
420,lazaro cardenas,17.9583,-102.2,84.52,50,7,10.85,MX,1743790099
421,ar ruways,24.1103,52.7306,81.77,35,61,9.44,AE,1743790100
422,boende,-0.2167,20.8667,69.6,96,100,2.98,CD,1743790102
423,olyokminsk,60.3736,120.4264,9.32,95,54,1.7,RU,1743790103
424,freeport,40.6576,-73.5832,68.18,44,0,14.97,US,1743789807
425,san angelo,31.4638,-100.437,55.94,88,100,11.5,US,1743790037
426,nova xavantina,-14.6667,-52.35,92.34,48,80,5.57,BR,1743790108
427,rawai,7.7797,98.3253,86.99,82,94,10.11,TH,1743790109
428,mosjoen,65.836,13.1908,34.32,86,40,2.3,NO,1743790110
429,flying fish cove,-10.4217,105.6791,80.28,89,75,8.05,CX,1743790111
430,pucallpa,-8.3791,-74.5539,86.04,62,75,2.3,PE,1743790112
431,kruisfontein,-34.0033,24.7314,65.64,98,16,4.43,ZA,1743790113
432,vorgashor,67.5833,63.95,1.0,96,100,4.05,RU,1743790114
433,borsa,47.6553,24.6633,50.76,66,64,5.39,RO,1743790115
434,mahibadhoo,3.7833,72.9667,84.02,67,97,1.39,MV,1743790117
435,kourou,5.1552,-52.6478,76.51,92,100,7.87,GF,1743790118
436,sylva,58.0348,56.7635,38.01,85,100,13.89,RU,1743790119
437,aginskoye,51.1,114.53,29.68,36,37,3.6,RU,1743790120
438,port pirie,-33.1833,138.0167,54.07,72,1,5.21,AU,1743790121
439,katsuura,35.1333,140.3,50.77,70,86,11.68,JP,1743790122
440,huarmey,-10.0681,-78.1522,75.65,72,80,10.92,PE,1743790123
441,sawakin,19.1059,37.3321,79.23,70,61,13.35,SD,1743790124
442,lethbridge,49.7,-112.8186,33.91,51,20,4.61,CA,1743789858
443,malabar,-33.9667,151.25,64.11,85,72,6.91,AU,1743790127
444,tralee,52.2704,-9.7026,62.85,67,75,10.36,IE,1743790128
445,kande,9.9578,1.0447,98.47,21,14,1.48,TG,1743790129
446,manadhoo,5.7667,73.3833,84.16,70,75,4.74,MV,1743790130
447,tingi,-11.3,35.0333,62.76,96,99,4.16,TZ,1743790131
448,sovetskaya,44.7769,41.1722,53.87,91,83,4.41,RU,1743790132
449,eureka,40.8021,-124.1637,59.25,75,89,4.0,US,1743790032
450,aykhal,66.0,111.5,2.62,99,94,6.46,RU,1743790135
451,guelmim,28.987,-10.0574,67.5,45,0,14.54,MA,1743790136
452,ladyzhyn,48.685,29.2368,55.56,69,11,6.29,UA,1743790137
453,south hedland,-20.4089,118.5983,76.93,78,5,6.91,AU,1743790138
454,kamaishi,39.2667,141.8833,37.47,80,67,6.17,JP,1743790139
455,ambanja,-13.6833,48.45,76.51,89,46,1.52,MG,1743790140
456,aguada de pasajeros,22.385,-80.8508,90.64,35,8,11.7,CU,1743790142
457,nova vicosa,-17.8919,-39.3719,84.7,60,71,9.28,BR,1743790110
458,tolanaro,-25.0319,46.9987,72.52,86,99,9.37,MG,1743790145
459,mabaruma,8.2,-59.7833,84.38,61,75,6.55,GY,1743790148
460,alaghsas,17.0187,8.0168,89.96,6,8,14.27,NE,1743790149
461,fortuna,40.5982,-124.1573,59.94,73,0,3.44,US,1743790150
462,oxapampa,-10.5775,-75.4017,69.53,73,94,2.57,PE,1743790151
463,bodo,67.28,14.405,33.84,77,75,11.5,NO,1743790152
464,taroa,8.7058,171.2275,80.01,80,98,23.85,MH,1743790153
465,turkmenabat,39.0733,63.5786,74.62,35,100,14.63,TM,1743790154
466,bandar abbas,27.1865,56.2808,78.78,65,57,6.91,IR,1743790157
467,huskvarna,57.786,14.3021,39.2,52,17,6.91,SE,1743790158
468,porangatu,-13.4408,-49.1486,89.8,49,33,3.24,BR,1743790018
469,znamenskoye,57.1281,73.8282,29.71,85,90,12.12,RU,1743790160
470,salekhard,66.53,66.6019,-2.83,100,45,2.39,RU,1743790161
471,berdigestyakh,62.0989,126.6992,-7.17,100,36,3.15,RU,1743790162
472,tirat karmel,32.7617,34.9719,62.58,75,7,6.87,IL,1743790163
473,onega,63.9061,38.1404,24.17,78,99,17.02,RU,1743790093
474,urbania,43.6697,12.5201,56.52,52,0,2.62,IT,1743790166
475,"laikit, laikit ii (dimembe)",1.4792,124.9735,71.71,100,100,2.15,ID,1743790167
476,long beach,33.767,-118.1892,65.14,62,0,6.91,US,1743790168
477,daru,-9.0763,143.2092,80.2,82,88,6.46,PG,1743790169
478,makoua,0.0069,15.6333,75.99,83,98,3.13,CG,1743790170
479,manicore,-5.8092,-61.3003,87.03,60,100,3.36,BR,1743790172
480,nouadhibou,20.931,-17.0347,64.38,87,76,23.42,MR,1743790173
481,lady frere,-31.7031,27.2329,60.84,92,91,3.8,ZA,1743790174
482,kyren,51.6828,102.1408,35.64,47,14,4.27,RU,1743790175
483,novodvinsk,64.4165,40.8122,28.15,80,100,17.07,RU,1743790176
484,maragogi,-9.0122,-35.2225,85.24,66,77,11.43,BR,1743790177
485,shingu,33.7333,135.9833,41.67,65,29,5.91,JP,1743790024
486,manokwari,-0.8667,134.0833,77.81,84,100,4.03,ID,1743790180
487,salinopolis,-0.6136,-47.3561,79.79,88,98,13.44,BR,1743790151
488,tongouson,5.0214,120.1328,79.25,80,100,2.24,PH,1743790182
489,zhengjiatun,43.5064,123.5064,43.29,72,92,12.12,CN,1743790183
490,mbaiki,3.8678,17.9892,81.79,59,98,1.86,CF,1743790003
491,bei'an,46.4398,126.2373,45.45,74,100,9.28,CN,1743790185
492,lewin brzeski,50.7487,17.6169,59.41,64,15,3.96,PL,1743790186
493,rabaul,-4.1967,152.1721,78.55,82,94,3.31,PG,1743790189
494,kiruhura,-2.4773,29.7679,61.75,93,79,2.37,RW,1743790190
495,anna regina,7.2644,-58.5077,81.95,76,90,9.84,GY,1743790191
496,carloforte,39.145,8.3058,60.46,67,100,12.75,IT,1743790192
497,portland,45.5234,-122.6762,58.17,66,75,4.0,US,1743790044
498,suonenjoki,62.6167,27.1333,35.4,76,97,9.35,FI,1743790194
499,staroyur'yevo,53.3161,40.7081,53.51,64,33,13.0,RU,1743790195
500,charlottetown,46.2352,-63.1267,41.2,76,40,16.11,CA,1743789911
501,pea ridge,38.414,-82.3199,66.72,95,100,4.41,US,1743790198
502,springbok,-29.6643,17.8865,72.81,53,1,4.65,ZA,1743790199
503,susuman,62.7833,148.1667,4.24,86,100,3.27,RU,1743790200
504,tangalle,6.024,80.7911,75.49,92,96,11.3,LK,1743790201
505,namibe,-15.1961,12.1522,74.03,74,69,14.0,AO,1743790202
506,yugo-kamskiy,57.7053,55.5894,39.02,78,100,15.17,RU,1743790203
507,kuloy,61.0305,42.4925,34.75,81,97,13.0,RU,1743790205
508,lebyazh'ye,55.2689,66.4947,33.3,79,41,6.33,RU,1743790206
509,sorsk,54.0033,90.2467,41.11,47,100,8.23,RU,1743790207
510,jisr ash shughur,35.8143,36.3206,54.48,88,53,6.4,SY,1743790208
511,goksun,38.021,36.4973,45.97,80,96,3.85,TR,1743790209
512,kerikeri,-35.2268,173.9474,56.91,95,34,3.58,NZ,1743790211
513,idabel,33.8957,-94.8263,74.88,100,100,6.91,US,1743790212
514,kribi,2.95,9.9167,81.0,85,71,7.85,CM,1743790213
515,acajutla,13.5928,-89.8275,90.54,59,8,10.63,SV,1743790214
516,itupiranga,-5.1347,-49.3267,88.29,75,100,2.42,BR,1743789941
517,novyy urengoy,66.0833,76.6333,-4.58,93,8,8.57,RU,1743790217
518,prince rupert,54.3161,-130.3201,49.08,69,100,3.02,CA,1743790219
519,waat,51.1454,6.4958,69.76,42,0,5.75,DE,1743790220
520,langsa,4.4683,97.9683,76.53,92,100,1.43,ID,1743790221
521,zhangye,38.9342,100.4517,46.49,19,4,4.09,CN,1743790222
522,kolonia,50.9333,6.95,70.45,35,0,8.05,DE,1743790014
523,macusani,-14.0833,-70.4333,48.69,59,90,12.12,PE,1743790224
524,elverum,60.8819,11.5623,41.92,50,68,10.63,NO,1743790225
525,tidjikja,18.5564,-11.4271,97.88,11,36,13.4,MR,1743790227
526,island harbour,50.724,-1.2758,68.07,75,87,16.67,GB,1743790228
527,chunskiy,56.0815,99.6342,35.78,83,100,4.7,RU,1743790229
528,kindu,-2.95,25.95,73.8,88,76,0.54,CD,1743790230
529,waycross,31.2136,-82.354,87.85,51,75,6.91,US,1743790083
530,wanning,18.8003,110.3967,68.83,87,7,2.39,CN,1743790232
531,vasyshcheve,49.8285,36.3269,56.7,57,9,6.62,UA,1743790233
532,la ronge,55.1001,-105.2842,22.68,76,73,10.76,CA,1743790234
533,nuuk,64.1835,-51.7216,18.21,73,100,19.57,GL,1743790236
534,port saint john's,-31.6229,29.5448,71.73,88,100,15.3,ZA,1743790237
535,kirensk,57.7853,108.1119,35.13,94,100,11.03,RU,1743790238
536,egilsstadir,65.2653,-14.3948,44.51,61,0,10.36,IS,1743790240
537,pinkafeld,47.3667,16.1167,55.76,50,4,0.74,AT,1743790242
538,mugia,43.1041,-9.2179,55.9,87,95,6.15,ES,1743790243
539,maceio,-9.6658,-35.7353,87.24,58,40,16.11,BR,1743790244
540,togur,58.3631,82.8265,33.67,94,100,6.6,RU,1743790245
541,primero de mayo,-32.2552,-58.4228,61.83,27,1,10.04,AR,1743790246
542,upington,-28.4478,21.2561,73.78,68,20,2.3,ZA,1743790247
543,perugorria,-29.3413,-58.6106,66.9,32,0,14.92,AR,1743790249
544,viedma,-40.8135,-62.9967,61.68,30,53,7.52,AR,1743790250
545,acarau,-2.8856,-40.12,80.42,80,82,12.88,BR,1743790251
546,margate,51.3813,1.3862,51.87,81,46,1.99,GB,1743790104
547,gornozavodsk,58.3758,58.3211,32.88,97,100,13.13,RU,1743790254
548,ataq,14.5377,46.8319,70.99,48,22,14.81,YE,1743790255
549,milazzo,38.2212,15.2383,61.99,77,39,1.99,IT,1743790257
550,meizhou,24.2977,116.1072,60.84,93,100,2.17,CN,1743790258
551,bethanie,-26.4833,17.15,81.93,35,72,9.06,NA,1743790259
552,forres,57.6113,-3.6108,47.82,75,0,18.41,GB,1743790260
553,jeddah,21.5169,39.2192,82.58,49,28,12.82,SA,1743790118
554,los angeles,34.0522,-118.2437,67.01,55,0,5.75,US,1743789854
555,southside,33.9245,-86.0225,81.9,65,0,12.66,US,1743790263
556,jambi city,-1.6,103.6167,73.45,99,100,3.6,ID,1743790265
557,ystad,55.4297,13.8204,43.18,77,42,10.4,SE,1743790266
558,santa rosalia,27.3167,-112.2833,61.18,43,0,6.87,MX,1743790267
559,miri,4.4148,114.0089,80.1,94,100,3.31,MY,1743790268
560,zvezdnyy,57.7325,56.3147,41.59,78,100,17.4,RU,1743790269
561,imbituba,-28.24,-48.6703,75.22,58,100,21.63,BR,1743790205
562,brisas de zicatela,15.8369,-97.0419,90.12,29,0,8.05,MX,1743790272
563,chipinge,-20.1883,32.6236,60.33,86,56,4.07,ZW,1743790275
564,boden,65.8252,21.6886,30.76,87,100,4.12,SE,1743790276
565,belomorsk,64.5232,34.7668,23.43,72,96,13.62,RU,1743790277
566,byron bay,-28.65,153.6167,68.27,86,91,3.38,AU,1743790035
567,pitkyaranta,61.5734,31.4792,34.7,71,70,10.45,RU,1743790279
